{
   "results" : [
      {
         "address_components" : [
            {
               "long_name" : "3055",
               "short_name" : "3055",
               "types" : [ "street_number" ]
            },
            {
               "long_name" : "Troup Crescent",
               "short_name" : "Troup Crescent",
               "types" : [ "route" ]
            },
            {
               "long_name" : "Forest Glade",
               "short_name" : "Forest Glade",
               "types" : [ "neighborhood", "political" ]
            },
            {
               "long_name" : "Windsor",
               "short_name" : "Windsor",
               "types" : [ "locality", "political" ]
            },
            {
               "long_name" : "Essex County",
               "short_name" : "Essex County",
               "types" : [ "administrative_area_level_2", "political" ]
            },
            {
               "long_name" : "Ontario",
               "short_name" : "ON",
               "types" : [ "administrative_area_level_1", "political" ]
            },
            {
               "long_name" : "Canada",
               "short_name" : "CA",
               "types" : [ "country", "political" ]
            },
            {
               "long_name" : "N8R 0A5",
               "short_name" : "N8R 0A5",
               "types" : [ "postal_code" ]
            }
         ],
         "formatted_address" : "3055 Troup Crescent, Windsor, ON N8R 0A5, Canada",
         "geometry" : {
            "bounds" : {
               "northeast" : {
                  "lat" : 42.3097263,
                  "lng" : -82.90217369999999
               },
               "southwest" : {
                  "lat" : 42.3095845,
                  "lng" : -82.9023668
               }
            },
            "location" : {
               "lat" : 42.3096554,
               "lng" : -82.9022703
            },
            "location_type" : "ROOFTOP",
            "viewport" : {
               "northeast" : {
                  "lat" : 42.3110043802915,
                  "lng" : -82.90092126970849
               },
               "southwest" : {
                  "lat" : 42.3083064197085,
                  "lng" : -82.9036192302915
               }
            }
         },
         "partial_match" : true,
         "place_id" : "ChIJbfAj12DVOogRtjo-mIvHBBk",
         "types" : [ "premise" ]
      }
   ],
   "status" : "OK"
}
