{
   "results" : [
      {
         "address_components" : [
            {
               "long_name" : "4012",
               "short_name" : "4012",
               "types" : [ "street_number" ]
            },
            {
               "long_name" : "Mount Royal Drive",
               "short_name" : "Mt Royal Dr",
               "types" : [ "route" ]
            },
            {
               "long_name" : "Roseland",
               "short_name" : "Roseland",
               "types" : [ "neighborhood", "political" ]
            },
            {
               "long_name" : "Windsor",
               "short_name" : "Windsor",
               "types" : [ "locality", "political" ]
            },
            {
               "long_name" : "Essex County",
               "short_name" : "Essex County",
               "types" : [ "administrative_area_level_2", "political" ]
            },
            {
               "long_name" : "Ontario",
               "short_name" : "ON",
               "types" : [ "administrative_area_level_1", "political" ]
            },
            {
               "long_name" : "Canada",
               "short_name" : "CA",
               "types" : [ "country", "political" ]
            },
            {
               "long_name" : "N9G 2B9",
               "short_name" : "N9G 2B9",
               "types" : [ "postal_code" ]
            }
         ],
         "formatted_address" : "4012 Mt Royal Dr, Windsor, ON N9G 2B9, Canada",
         "geometry" : {
            "bounds" : {
               "northeast" : {
                  "lat" : 42.2506902,
                  "lng" : -83.0142525
               },
               "southwest" : {
                  "lat" : 42.2505446,
                  "lng" : -83.0144183
               }
            },
            "location" : {
               "lat" : 42.2506174,
               "lng" : -83.01433539999999
            },
            "location_type" : "ROOFTOP",
            "viewport" : {
               "northeast" : {
                  "lat" : 42.2519663802915,
                  "lng" : -83.01298641970851
               },
               "southwest" : {
                  "lat" : 42.2492684197085,
                  "lng" : -83.01568438029152
               }
            }
         },
         "partial_match" : true,
         "place_id" : "ChIJVyXKqKIuO4gRQ9wB9ypb8cM",
         "types" : [ "premise" ]
      }
   ],
   "status" : "OK"
}
