{
   "results" : [
      {
         "address_components" : [
            {
               "long_name" : "3139",
               "short_name" : "3139",
               "types" : [ "street_number" ]
            },
            {
               "long_name" : "Fazio Drive",
               "short_name" : "Fazio Dr",
               "types" : [ "route" ]
            },
            {
               "long_name" : "Malden",
               "short_name" : "Malden",
               "types" : [ "neighborhood", "political" ]
            },
            {
               "long_name" : "Windsor",
               "short_name" : "Windsor",
               "types" : [ "locality", "political" ]
            },
            {
               "long_name" : "Essex County",
               "short_name" : "Essex County",
               "types" : [ "administrative_area_level_2", "political" ]
            },
            {
               "long_name" : "Ontario",
               "short_name" : "ON",
               "types" : [ "administrative_area_level_1", "political" ]
            },
            {
               "long_name" : "Canada",
               "short_name" : "CA",
               "types" : [ "country", "political" ]
            },
            {
               "long_name" : "N9E 4H1",
               "short_name" : "N9E 4H1",
               "types" : [ "postal_code" ]
            }
         ],
         "formatted_address" : "3139 Fazio Dr, Windsor, ON N9E 4H1, Canada",
         "geometry" : {
            "bounds" : {
               "northeast" : {
                  "lat" : 42.2593974,
                  "lng" : -83.04456619999999
               },
               "southwest" : {
                  "lat" : 42.2592221,
                  "lng" : -83.04472220000001
               }
            },
            "location" : {
               "lat" : 42.2593098,
               "lng" : -83.04464419999999
            },
            "location_type" : "ROOFTOP",
            "viewport" : {
               "northeast" : {
                  "lat" : 42.2606587302915,
                  "lng" : -83.04329521970851
               },
               "southwest" : {
                  "lat" : 42.2579607697085,
                  "lng" : -83.04599318029152
               }
            }
         },
         "partial_match" : true,
         "place_id" : "ChIJhzIyU3guO4gRo0SWoobvfJs",
         "types" : [ "premise" ]
      }
   ],
   "status" : "OK"
}
