{
   "results" : [
      {
         "address_components" : [
            {
               "long_name" : "3598",
               "short_name" : "3598",
               "types" : [ "street_number" ]
            },
            {
               "long_name" : "Tecumseh Road East",
               "short_name" : "Tecumseh Rd E",
               "types" : [ "route" ]
            },
            {
               "long_name" : "Fontainbleu",
               "short_name" : "Fontainbleu",
               "types" : [ "neighborhood", "political" ]
            },
            {
               "long_name" : "Windsor",
               "short_name" : "Windsor",
               "types" : [ "locality", "political" ]
            },
            {
               "long_name" : "Essex County",
               "short_name" : "Essex County",
               "types" : [ "administrative_area_level_2", "political" ]
            },
            {
               "long_name" : "Ontario",
               "short_name" : "ON",
               "types" : [ "administrative_area_level_1", "political" ]
            },
            {
               "long_name" : "Canada",
               "short_name" : "CA",
               "types" : [ "country", "political" ]
            },
            {
               "long_name" : "N8W 1H7",
               "short_name" : "N8W 1H7",
               "types" : [ "postal_code" ]
            }
         ],
         "formatted_address" : "3598 Tecumseh Rd E, Windsor, ON N8W 1H7, Canada",
         "geometry" : {
            "bounds" : {
               "northeast" : {
                  "lat" : 42.3050608,
                  "lng" : -82.9801842
               },
               "southwest" : {
                  "lat" : 42.3050473,
                  "lng" : -82.980189
               }
            },
            "location" : {
               "lat" : 42.3050473,
               "lng" : -82.9801842
            },
            "location_type" : "RANGE_INTERPOLATED",
            "viewport" : {
               "northeast" : {
                  "lat" : 42.3064030302915,
                  "lng" : -82.9788376197085
               },
               "southwest" : {
                  "lat" : 42.3037050697085,
                  "lng" : -82.98153558029151
               }
            }
         },
         "partial_match" : true,
         "place_id" : "Ei8zNTk4IFRlY3Vtc2VoIFJkIEUsIFdpbmRzb3IsIE9OIE44VyAxSDcsIENhbmFkYQ",
         "types" : [ "street_address" ]
      },
      {
         "address_components" : [
            {
               "long_name" : "3598",
               "short_name" : "3598",
               "types" : [ "street_number" ]
            },
            {
               "long_name" : "Tecumseh Road West",
               "short_name" : "Tecumseh Rd W",
               "types" : [ "route" ]
            },
            {
               "long_name" : "Sandwich",
               "short_name" : "Sandwich",
               "types" : [ "neighborhood", "political" ]
            },
            {
               "long_name" : "Windsor",
               "short_name" : "Windsor",
               "types" : [ "locality", "political" ]
            },
            {
               "long_name" : "Essex County",
               "short_name" : "Essex County",
               "types" : [ "administrative_area_level_2", "political" ]
            },
            {
               "long_name" : "Ontario",
               "short_name" : "ON",
               "types" : [ "administrative_area_level_1", "political" ]
            },
            {
               "long_name" : "Canada",
               "short_name" : "CA",
               "types" : [ "country", "political" ]
            },
            {
               "long_name" : "N9C 2B6",
               "short_name" : "N9C 2B6",
               "types" : [ "postal_code" ]
            }
         ],
         "formatted_address" : "3598 Tecumseh Rd W, Windsor, ON N9C 2B6, Canada",
         "geometry" : {
            "bounds" : {
               "northeast" : {
                  "lat" : 42.2887705,
                  "lng" : -83.06318759999999
               },
               "southwest" : {
                  "lat" : 42.2887566,
                  "lng" : -83.06318899999999
               }
            },
            "location" : {
               "lat" : 42.2887705,
               "lng" : -83.06318899999999
            },
            "location_type" : "RANGE_INTERPOLATED",
            "viewport" : {
               "northeast" : {
                  "lat" : 42.29011253029149,
                  "lng" : -83.0618393197085
               },
               "southwest" : {
                  "lat" : 42.2874145697085,
                  "lng" : -83.0645372802915
               }
            }
         },
         "partial_match" : true,
         "place_id" : "Ei8zNTk4IFRlY3Vtc2VoIFJkIFcsIFdpbmRzb3IsIE9OIE45QyAyQjYsIENhbmFkYQ",
         "types" : [ "street_address" ]
      }
   ],
   "status" : "OK"
}
