{
   "results" : [
      {
         "address_components" : [
            {
               "long_name" : "328",
               "short_name" : "328",
               "types" : [ "street_number" ]
            },
            {
               "long_name" : "John B Avenue",
               "short_name" : "John B Ave",
               "types" : [ "route" ]
            },
            {
               "long_name" : "Sandwich",
               "short_name" : "Sandwich",
               "types" : [ "neighborhood", "political" ]
            },
            {
               "long_name" : "Windsor",
               "short_name" : "Windsor",
               "types" : [ "locality", "political" ]
            },
            {
               "long_name" : "Essex County",
               "short_name" : "Essex County",
               "types" : [ "administrative_area_level_2", "political" ]
            },
            {
               "long_name" : "Ontario",
               "short_name" : "ON",
               "types" : [ "administrative_area_level_1", "political" ]
            },
            {
               "long_name" : "Canada",
               "short_name" : "CA",
               "types" : [ "country", "political" ]
            },
            {
               "long_name" : "N9C 3G2",
               "short_name" : "N9C 3G2",
               "types" : [ "postal_code" ]
            }
         ],
         "formatted_address" : "328 John B Ave, Windsor, ON N9C 3G2, Canada",
         "geometry" : {
            "bounds" : {
               "northeast" : {
                  "lat" : 42.287967,
                  "lng" : -83.08359
               },
               "southwest" : {
                  "lat" : 42.2878471,
                  "lng" : -83.0837315
               }
            },
            "location" : {
               "lat" : 42.287907,
               "lng" : -83.08366079999999
            },
            "location_type" : "ROOFTOP",
            "viewport" : {
               "northeast" : {
                  "lat" : 42.2892560302915,
                  "lng" : -83.0823117697085
               },
               "southwest" : {
                  "lat" : 42.28655806970851,
                  "lng" : -83.0850097302915
               }
            }
         },
         "partial_match" : true,
         "place_id" : "ChIJP_JPEHQyO4gRwwzrZ9-MGDQ",
         "types" : [ "premise" ]
      },
      {
         "address_components" : [
            {
               "long_name" : "328",
               "short_name" : "328",
               "types" : [ "street_number" ]
            },
            {
               "long_name" : "Saint John Street",
               "short_name" : "St John St",
               "types" : [ "route" ]
            },
            {
               "long_name" : "Riverside",
               "short_name" : "Riverside",
               "types" : [ "neighborhood", "political" ]
            },
            {
               "long_name" : "Windsor",
               "short_name" : "Windsor",
               "types" : [ "locality", "political" ]
            },
            {
               "long_name" : "Essex County",
               "short_name" : "Essex County",
               "types" : [ "administrative_area_level_2", "political" ]
            },
            {
               "long_name" : "Ontario",
               "short_name" : "ON",
               "types" : [ "administrative_area_level_1", "political" ]
            },
            {
               "long_name" : "Canada",
               "short_name" : "CA",
               "types" : [ "country", "political" ]
            },
            {
               "long_name" : "N8S 3T5",
               "short_name" : "N8S 3T5",
               "types" : [ "postal_code" ]
            }
         ],
         "formatted_address" : "328 St John St, Windsor, ON N8S 3T5, Canada",
         "geometry" : {
            "bounds" : {
               "northeast" : {
                  "lat" : 42.3388939,
                  "lng" : -82.9423355
               },
               "southwest" : {
                  "lat" : 42.3388879,
                  "lng" : -82.9423525
               }
            },
            "location" : {
               "lat" : 42.3388879,
               "lng" : -82.9423525
            },
            "location_type" : "RANGE_INTERPOLATED",
            "viewport" : {
               "northeast" : {
                  "lat" : 42.3402398802915,
                  "lng" : -82.9409950197085
               },
               "southwest" : {
                  "lat" : 42.3375419197085,
                  "lng" : -82.9436929802915
               }
            }
         },
         "partial_match" : true,
         "place_id" : "EiszMjggU3QgSm9obiBTdCwgV2luZHNvciwgT04gTjhTIDNUNSwgQ2FuYWRh",
         "types" : [ "street_address" ]
      }
   ],
   "status" : "OK"
}
