{
   "results" : [
      {
         "address_components" : [
            {
               "long_name" : "342",
               "short_name" : "342",
               "types" : [ "street_number" ]
            },
            {
               "long_name" : "Randolph Avenue",
               "short_name" : "Randolph Ave",
               "types" : [ "route" ]
            },
            {
               "long_name" : "University",
               "short_name" : "University",
               "types" : [ "neighborhood", "political" ]
            },
            {
               "long_name" : "Windsor",
               "short_name" : "Windsor",
               "types" : [ "locality", "political" ]
            },
            {
               "long_name" : "Essex County",
               "short_name" : "Essex County",
               "types" : [ "administrative_area_level_2", "political" ]
            },
            {
               "long_name" : "Ontario",
               "short_name" : "ON",
               "types" : [ "administrative_area_level_1", "political" ]
            },
            {
               "long_name" : "Canada",
               "short_name" : "CA",
               "types" : [ "country", "political" ]
            },
            {
               "long_name" : "N9B 2T6",
               "short_name" : "N9B 2T6",
               "types" : [ "postal_code" ]
            }
         ],
         "formatted_address" : "342 Randolph Ave, Windsor, ON N9B 2T6, Canada",
         "geometry" : {
            "bounds" : {
               "northeast" : {
                  "lat" : 42.30923809999999,
                  "lng" : -83.06284909999999
               },
               "southwest" : {
                  "lat" : 42.3091274,
                  "lng" : -83.0630357
               }
            },
            "location" : {
               "lat" : 42.3091827,
               "lng" : -83.0629424
            },
            "location_type" : "ROOFTOP",
            "viewport" : {
               "northeast" : {
                  "lat" : 42.31053173029149,
                  "lng" : -83.06159341970849
               },
               "southwest" : {
                  "lat" : 42.30783376970849,
                  "lng" : -83.06429138029149
               }
            }
         },
         "partial_match" : true,
         "place_id" : "ChIJs9Po1XMtO4gRVZee9xg7S2Q",
         "types" : [ "premise" ]
      }
   ],
   "status" : "OK"
}
