{
   "results" : [
      {
         "address_components" : [
            {
               "long_name" : "1439",
               "short_name" : "1439",
               "types" : [ "street_number" ]
            },
            {
               "long_name" : "Saint Luke Road",
               "short_name" : "St Luke Rd",
               "types" : [ "route" ]
            },
            {
               "long_name" : "East Windsor",
               "short_name" : "East Windsor",
               "types" : [ "neighborhood", "political" ]
            },
            {
               "long_name" : "Windsor",
               "short_name" : "Windsor",
               "types" : [ "locality", "political" ]
            },
            {
               "long_name" : "Essex County",
               "short_name" : "Essex County",
               "types" : [ "administrative_area_level_2", "political" ]
            },
            {
               "long_name" : "Ontario",
               "short_name" : "ON",
               "types" : [ "administrative_area_level_1", "political" ]
            },
            {
               "long_name" : "Canada",
               "short_name" : "CA",
               "types" : [ "country", "political" ]
            },
            {
               "long_name" : "N8Y 1X3",
               "short_name" : "N8Y 1X3",
               "types" : [ "postal_code" ]
            }
         ],
         "formatted_address" : "1439 St Luke Rd, Windsor, ON N8Y 1X3, Canada",
         "geometry" : {
            "bounds" : {
               "northeast" : {
                  "lat" : 42.3113941,
                  "lng" : -82.99700129999999
               },
               "southwest" : {
                  "lat" : 42.31138809999999,
                  "lng" : -82.9970182
               }
            },
            "location" : {
               "lat" : 42.3113941,
               "lng" : -82.99700129999999
            },
            "location_type" : "RANGE_INTERPOLATED",
            "viewport" : {
               "northeast" : {
                  "lat" : 42.3127400802915,
                  "lng" : -82.99566076970848
               },
               "southwest" : {
                  "lat" : 42.31004211970851,
                  "lng" : -82.9983587302915
               }
            }
         },
         "partial_match" : true,
         "place_id" : "EiwxNDM5IFN0IEx1a2UgUmQsIFdpbmRzb3IsIE9OIE44WSAxWDMsIENhbmFkYQ",
         "types" : [ "street_address" ]
      },
      {
         "address_components" : [
            {
               "long_name" : "1439",
               "short_name" : "1439",
               "types" : [ "street_number" ]
            },
            {
               "long_name" : "Saint Luke Road",
               "short_name" : "St Luke Rd",
               "types" : [ "route" ]
            },
            {
               "long_name" : "East Windsor",
               "short_name" : "East Windsor",
               "types" : [ "neighborhood", "political" ]
            },
            {
               "long_name" : "Windsor",
               "short_name" : "Windsor",
               "types" : [ "locality", "political" ]
            },
            {
               "long_name" : "Essex County",
               "short_name" : "Essex County",
               "types" : [ "administrative_area_level_2", "political" ]
            },
            {
               "long_name" : "Ontario",
               "short_name" : "ON",
               "types" : [ "administrative_area_level_1", "political" ]
            },
            {
               "long_name" : "Canada",
               "short_name" : "CA",
               "types" : [ "country", "political" ]
            },
            {
               "long_name" : "N8Y 4W7",
               "short_name" : "N8Y 4W7",
               "types" : [ "postal_code" ]
            }
         ],
         "formatted_address" : "1439 St Luke Rd, Windsor, ON N8Y 4W7, Canada",
         "geometry" : {
            "bounds" : {
               "northeast" : {
                  "lat" : 42.3142078,
                  "lng" : -82.9988326
               },
               "southwest" : {
                  "lat" : 42.31420079999999,
                  "lng" : -82.9988488
               }
            },
            "location" : {
               "lat" : 42.3142078,
               "lng" : -82.9988326
            },
            "location_type" : "RANGE_INTERPOLATED",
            "viewport" : {
               "northeast" : {
                  "lat" : 42.3155532802915,
                  "lng" : -82.99749171970851
               },
               "southwest" : {
                  "lat" : 42.3128553197085,
                  "lng" : -83.00018968029151
               }
            }
         },
         "partial_match" : true,
         "place_id" : "EiwxNDM5IFN0IEx1a2UgUmQsIFdpbmRzb3IsIE9OIE44WSA0VzcsIENhbmFkYQ",
         "types" : [ "street_address" ]
      }
   ],
   "status" : "OK"
}
