{
   "results" : [
      {
         "address_components" : [
            {
               "long_name" : "222",
               "short_name" : "222",
               "types" : [ "street_number" ]
            },
            {
               "long_name" : "Watson Avenue",
               "short_name" : "Watson Ave",
               "types" : [ "route" ]
            },
            {
               "long_name" : "Riverside",
               "short_name" : "Riverside",
               "types" : [ "neighborhood", "political" ]
            },
            {
               "long_name" : "Windsor",
               "short_name" : "Windsor",
               "types" : [ "locality", "political" ]
            },
            {
               "long_name" : "Essex County",
               "short_name" : "Essex County",
               "types" : [ "administrative_area_level_2", "political" ]
            },
            {
               "long_name" : "Ontario",
               "short_name" : "ON",
               "types" : [ "administrative_area_level_1", "political" ]
            },
            {
               "long_name" : "Canada",
               "short_name" : "CA",
               "types" : [ "country", "political" ]
            },
            {
               "long_name" : "N8S 3R9",
               "short_name" : "N8S 3R9",
               "types" : [ "postal_code" ]
            }
         ],
         "formatted_address" : "222 Watson Ave, Windsor, ON N8S 3R9, Canada",
         "geometry" : {
            "bounds" : {
               "northeast" : {
                  "lat" : 42.3408454,
                  "lng" : -82.9447952
               },
               "southwest" : {
                  "lat" : 42.3408396,
                  "lng" : -82.94481220000002
               }
            },
            "location" : {
               "lat" : 42.3408396,
               "lng" : -82.94481220000002
            },
            "location_type" : "RANGE_INTERPOLATED",
            "viewport" : {
               "northeast" : {
                  "lat" : 42.3421914802915,
                  "lng" : -82.94345471970851
               },
               "southwest" : {
                  "lat" : 42.3394935197085,
                  "lng" : -82.94615268029152
               }
            }
         },
         "partial_match" : true,
         "place_id" : "EisyMjIgV2F0c29uIEF2ZSwgV2luZHNvciwgT04gTjhTIDNSOSwgQ2FuYWRh",
         "types" : [ "street_address" ]
      },
      {
         "address_components" : [
            {
               "long_name" : "222",
               "short_name" : "222",
               "types" : [ "street_number" ]
            },
            {
               "long_name" : "Watson Street",
               "short_name" : "Watson St",
               "types" : [ "route" ]
            },
            {
               "long_name" : "Midtown",
               "short_name" : "Midtown",
               "types" : [ "neighborhood", "political" ]
            },
            {
               "long_name" : "Detroit",
               "short_name" : "Detroit",
               "types" : [ "locality", "political" ]
            },
            {
               "long_name" : "Wayne County",
               "short_name" : "Wayne County",
               "types" : [ "administrative_area_level_2", "political" ]
            },
            {
               "long_name" : "Michigan",
               "short_name" : "MI",
               "types" : [ "administrative_area_level_1", "political" ]
            },
            {
               "long_name" : "United States",
               "short_name" : "US",
               "types" : [ "country", "political" ]
            },
            {
               "long_name" : "48201",
               "short_name" : "48201",
               "types" : [ "postal_code" ]
            }
         ],
         "formatted_address" : "222 Watson St, Detroit, MI 48201, USA",
         "geometry" : {
            "bounds" : {
               "northeast" : {
                  "lat" : 42.3456178,
                  "lng" : -83.0538784
               },
               "southwest" : {
                  "lat" : 42.34560570000001,
                  "lng" : -83.0538875
               }
            },
            "location" : {
               "lat" : 42.3456178,
               "lng" : -83.0538875
            },
            "location_type" : "RANGE_INTERPOLATED",
            "viewport" : {
               "northeast" : {
                  "lat" : 42.34696073029151,
                  "lng" : -83.05253396970851
               },
               "southwest" : {
                  "lat" : 42.34426276970851,
                  "lng" : -83.05523193029151
               }
            }
         },
         "partial_match" : true,
         "place_id" : "EiUyMjIgV2F0c29uIFN0LCBEZXRyb2l0LCBNSSA0ODIwMSwgVVNB",
         "types" : [ "street_address" ]
      }
   ],
   "status" : "OK"
}
