{
   "results" : [
      {
         "address_components" : [
            {
               "long_name" : "2123",
               "short_name" : "2123",
               "types" : [ "street_number" ]
            },
            {
               "long_name" : "Mark Avenue",
               "short_name" : "Mark Ave",
               "types" : [ "route" ]
            },
            {
               "long_name" : "South Cameron",
               "short_name" : "South Cameron",
               "types" : [ "neighborhood", "political" ]
            },
            {
               "long_name" : "Windsor",
               "short_name" : "Windsor",
               "types" : [ "locality", "political" ]
            },
            {
               "long_name" : "Essex County",
               "short_name" : "Essex County",
               "types" : [ "administrative_area_level_2", "political" ]
            },
            {
               "long_name" : "Ontario",
               "short_name" : "ON",
               "types" : [ "administrative_area_level_1", "political" ]
            },
            {
               "long_name" : "Canada",
               "short_name" : "CA",
               "types" : [ "country", "political" ]
            },
            {
               "long_name" : "N9B 3X7",
               "short_name" : "N9B 3X7",
               "types" : [ "postal_code" ]
            }
         ],
         "formatted_address" : "2123 Mark Ave, Windsor, ON N9B 3X7, Canada",
         "geometry" : {
            "bounds" : {
               "northeast" : {
                  "lat" : 42.2825019,
                  "lng" : -83.03967039999999
               },
               "southwest" : {
                  "lat" : 42.282333,
                  "lng" : -83.0399292
               }
            },
            "location" : {
               "lat" : 42.28241740000001,
               "lng" : -83.0397998
            },
            "location_type" : "ROOFTOP",
            "viewport" : {
               "northeast" : {
                  "lat" : 42.2837664302915,
                  "lng" : -83.0384508197085
               },
               "southwest" : {
                  "lat" : 42.2810684697085,
                  "lng" : -83.04114878029151
               }
            }
         },
         "partial_match" : true,
         "place_id" : "ChIJtYPQvbUtO4gRKENYiBptaqw",
         "types" : [ "premise" ]
      }
   ],
   "status" : "OK"
}
