{
   "results" : [
      {
         "address_components" : [
            {
               "long_name" : "4572",
               "short_name" : "4572",
               "types" : [ "street_number" ]
            },
            {
               "long_name" : "Fontana Avenue",
               "short_name" : "Fontana Ave",
               "types" : [ "route" ]
            },
            {
               "long_name" : "Walker Gates",
               "short_name" : "Walker Gates",
               "types" : [ "neighborhood", "political" ]
            },
            {
               "long_name" : "Windsor",
               "short_name" : "Windsor",
               "types" : [ "locality", "political" ]
            },
            {
               "long_name" : "Essex County",
               "short_name" : "Essex County",
               "types" : [ "administrative_area_level_2", "political" ]
            },
            {
               "long_name" : "Ontario",
               "short_name" : "ON",
               "types" : [ "administrative_area_level_1", "political" ]
            },
            {
               "long_name" : "Canada",
               "short_name" : "CA",
               "types" : [ "country", "political" ]
            },
            {
               "long_name" : "N9G 3C8",
               "short_name" : "N9G 3C8",
               "types" : [ "postal_code" ]
            }
         ],
         "formatted_address" : "4572 Fontana Ave, Windsor, ON N9G 3C8, Canada",
         "geometry" : {
            "bounds" : {
               "northeast" : {
                  "lat" : 42.2498955,
                  "lng" : -82.9675333
               },
               "southwest" : {
                  "lat" : 42.2497712,
                  "lng" : -82.96776609999999
               }
            },
            "location" : {
               "lat" : 42.2498334,
               "lng" : -82.9676497
            },
            "location_type" : "ROOFTOP",
            "viewport" : {
               "northeast" : {
                  "lat" : 42.2511823302915,
                  "lng" : -82.9663007197085
               },
               "southwest" : {
                  "lat" : 42.2484843697085,
                  "lng" : -82.96899868029151
               }
            }
         },
         "partial_match" : true,
         "place_id" : "ChIJ5SEq9WYpO4gR8eOljLyu1TY",
         "types" : [ "premise" ]
      }
   ],
   "status" : "OK"
}
