{
   "results" : [
      {
         "address_components" : [
            {
               "long_name" : "1019",
               "short_name" : "1019",
               "types" : [ "street_number" ]
            },
            {
               "long_name" : "Windsor Avenue",
               "short_name" : "Windsor Ave",
               "types" : [ "route" ]
            },
            {
               "long_name" : "South Central",
               "short_name" : "South Central",
               "types" : [ "neighborhood", "political" ]
            },
            {
               "long_name" : "Windsor",
               "short_name" : "Windsor",
               "types" : [ "locality", "political" ]
            },
            {
               "long_name" : "Essex County",
               "short_name" : "Essex County",
               "types" : [ "administrative_area_level_2", "political" ]
            },
            {
               "long_name" : "Ontario",
               "short_name" : "ON",
               "types" : [ "administrative_area_level_1", "political" ]
            },
            {
               "long_name" : "Canada",
               "short_name" : "CA",
               "types" : [ "country", "political" ]
            },
            {
               "long_name" : "N9A 1K3",
               "short_name" : "N9A 1K3",
               "types" : [ "postal_code" ]
            }
         ],
         "formatted_address" : "1019 Windsor Ave, Windsor, ON N9A 1K3, Canada",
         "geometry" : {
            "bounds" : {
               "northeast" : {
                  "lat" : 42.3096357,
                  "lng" : -83.0304213
               },
               "southwest" : {
                  "lat" : 42.3095196,
                  "lng" : -83.0306645
               }
            },
            "location" : {
               "lat" : 42.3095777,
               "lng" : -83.0305429
            },
            "location_type" : "ROOFTOP",
            "viewport" : {
               "northeast" : {
                  "lat" : 42.3109266302915,
                  "lng" : -83.0291939197085
               },
               "southwest" : {
                  "lat" : 42.30822866970851,
                  "lng" : -83.03189188029152
               }
            }
         },
         "partial_match" : true,
         "place_id" : "ChIJuf67VvssO4gRtrOBY4XEDCQ",
         "types" : [ "premise" ]
      }
   ],
   "status" : "OK"
}
