{
   "results" : [
      {
         "address_components" : [
            {
               "long_name" : "1333",
               "short_name" : "1333",
               "types" : [ "street_number" ]
            },
            {
               "long_name" : "Bruce Avenue",
               "short_name" : "Bruce Ave",
               "types" : [ "route" ]
            },
            {
               "long_name" : "South Central",
               "short_name" : "South Central",
               "types" : [ "neighborhood", "political" ]
            },
            {
               "long_name" : "Windsor",
               "short_name" : "Windsor",
               "types" : [ "locality", "political" ]
            },
            {
               "long_name" : "Essex County",
               "short_name" : "Essex County",
               "types" : [ "administrative_area_level_2", "political" ]
            },
            {
               "long_name" : "Ontario",
               "short_name" : "ON",
               "types" : [ "administrative_area_level_1", "political" ]
            },
            {
               "long_name" : "Canada",
               "short_name" : "CA",
               "types" : [ "country", "political" ]
            },
            {
               "long_name" : "N8X 1X2",
               "short_name" : "N8X 1X2",
               "types" : [ "postal_code" ]
            }
         ],
         "formatted_address" : "1333 Bruce Ave, Windsor, ON N8X 1X2, Canada",
         "geometry" : {
            "bounds" : {
               "northeast" : {
                  "lat" : 42.30140979999999,
                  "lng" : -83.03552379999999
               },
               "southwest" : {
                  "lat" : 42.3013122,
                  "lng" : -83.03566769999999
               }
            },
            "location" : {
               "lat" : 42.301361,
               "lng" : -83.0355957
            },
            "location_type" : "ROOFTOP",
            "viewport" : {
               "northeast" : {
                  "lat" : 42.3027099802915,
                  "lng" : -83.03424676970849
               },
               "southwest" : {
                  "lat" : 42.3000120197085,
                  "lng" : -83.03694473029149
               }
            }
         },
         "partial_match" : true,
         "place_id" : "ChIJ_VV25v8sO4gRCOCb9pzTeyc",
         "types" : [ "premise" ]
      }
   ],
   "status" : "OK"
}
