{
   "results" : [
      {
         "address_components" : [
            {
               "long_name" : "2277",
               "short_name" : "2277",
               "types" : [ "street_number" ]
            },
            {
               "long_name" : "Parkwood Avenue",
               "short_name" : "Parkwood Ave",
               "types" : [ "route" ]
            },
            {
               "long_name" : "South Walkerville",
               "short_name" : "South Walkerville",
               "types" : [ "neighborhood", "political" ]
            },
            {
               "long_name" : "Windsor",
               "short_name" : "Windsor",
               "types" : [ "locality", "political" ]
            },
            {
               "long_name" : "Essex County",
               "short_name" : "Essex County",
               "types" : [ "administrative_area_level_2", "political" ]
            },
            {
               "long_name" : "Ontario",
               "short_name" : "ON",
               "types" : [ "administrative_area_level_1", "political" ]
            },
            {
               "long_name" : "Canada",
               "short_name" : "CA",
               "types" : [ "country", "political" ]
            },
            {
               "long_name" : "N8W 2K1",
               "short_name" : "N8W 2K1",
               "types" : [ "postal_code" ]
            }
         ],
         "formatted_address" : "2277 Parkwood Ave, Windsor, ON N8W 2K1, Canada",
         "geometry" : {
            "bounds" : {
               "northeast" : {
                  "lat" : 42.2960701,
                  "lng" : -83.00469249999999
               },
               "southwest" : {
                  "lat" : 42.2959416,
                  "lng" : -83.00489549999999
               }
            },
            "location" : {
               "lat" : 42.2960058,
               "lng" : -83.00479399999999
            },
            "location_type" : "ROOFTOP",
            "viewport" : {
               "northeast" : {
                  "lat" : 42.2973548302915,
                  "lng" : -83.00344501970849
               },
               "southwest" : {
                  "lat" : 42.2946568697085,
                  "lng" : -83.00614298029151
               }
            }
         },
         "partial_match" : true,
         "place_id" : "ChIJscARJ2MsO4gRMbiu7x0YGT0",
         "types" : [ "premise" ]
      }
   ],
   "status" : "OK"
}
