{
   "results" : [
      {
         "address_components" : [
            {
               "long_name" : "1117",
               "short_name" : "1117",
               "types" : [ "street_number" ]
            },
            {
               "long_name" : "Grand Marais Road East",
               "short_name" : "Grand Marais Rd E",
               "types" : [ "route" ]
            },
            {
               "long_name" : "Remington Park",
               "short_name" : "Remington Park",
               "types" : [ "neighborhood", "political" ]
            },
            {
               "long_name" : "Windsor",
               "short_name" : "Windsor",
               "types" : [ "locality", "political" ]
            },
            {
               "long_name" : "Essex County",
               "short_name" : "Essex County",
               "types" : [ "administrative_area_level_2", "political" ]
            },
            {
               "long_name" : "Ontario",
               "short_name" : "ON",
               "types" : [ "administrative_area_level_1", "political" ]
            },
            {
               "long_name" : "Canada",
               "short_name" : "CA",
               "types" : [ "country", "political" ]
            },
            {
               "long_name" : "N8W 1W3",
               "short_name" : "N8W 1W3",
               "types" : [ "postal_code" ]
            }
         ],
         "formatted_address" : "1117 Grand Marais Rd E, Windsor, ON N8W 1W3, Canada",
         "geometry" : {
            "bounds" : {
               "northeast" : {
                  "lat" : 42.2842474,
                  "lng" : -82.9974546
               },
               "southwest" : {
                  "lat" : 42.284235,
                  "lng" : -82.9974632
               }
            },
            "location" : {
               "lat" : 42.2842474,
               "lng" : -82.9974632
            },
            "location_type" : "RANGE_INTERPOLATED",
            "viewport" : {
               "northeast" : {
                  "lat" : 42.2855901802915,
                  "lng" : -82.9961099197085
               },
               "southwest" : {
                  "lat" : 42.2828922197085,
                  "lng" : -82.99880788029151
               }
            }
         },
         "partial_match" : true,
         "place_id" : "EjMxMTE3IEdyYW5kIE1hcmFpcyBSZCBFLCBXaW5kc29yLCBPTiBOOFcgMVczLCBDYW5hZGE",
         "types" : [ "street_address" ]
      },
      {
         "address_components" : [
            {
               "long_name" : "1117",
               "short_name" : "1117",
               "types" : [ "street_number" ]
            },
            {
               "long_name" : "Grand Marais Road West",
               "short_name" : "Grand Marais Rd W",
               "types" : [ "route" ]
            },
            {
               "long_name" : "South Windsor",
               "short_name" : "South Windsor",
               "types" : [ "neighborhood", "political" ]
            },
            {
               "long_name" : "Windsor",
               "short_name" : "Windsor",
               "types" : [ "locality", "political" ]
            },
            {
               "long_name" : "Essex County",
               "short_name" : "Essex County",
               "types" : [ "administrative_area_level_2", "political" ]
            },
            {
               "long_name" : "Ontario",
               "short_name" : "ON",
               "types" : [ "administrative_area_level_1", "political" ]
            },
            {
               "long_name" : "Canada",
               "short_name" : "CA",
               "types" : [ "country", "political" ]
            },
            {
               "long_name" : "N9E 1C8",
               "short_name" : "N9E 1C8",
               "types" : [ "postal_code" ]
            }
         ],
         "formatted_address" : "1117 Grand Marais Rd W, Windsor, ON N9E 1C8, Canada",
         "geometry" : {
            "bounds" : {
               "northeast" : {
                  "lat" : 42.2699074,
                  "lng" : -83.02336389999999
               },
               "southwest" : {
                  "lat" : 42.2698954,
                  "lng" : -83.02337349999999
               }
            },
            "location" : {
               "lat" : 42.2699074,
               "lng" : -83.02337349999999
            },
            "location_type" : "RANGE_INTERPOLATED",
            "viewport" : {
               "northeast" : {
                  "lat" : 42.2712503802915,
                  "lng" : -83.0220197197085
               },
               "southwest" : {
                  "lat" : 42.2685524197085,
                  "lng" : -83.0247176802915
               }
            }
         },
         "partial_match" : true,
         "place_id" : "EjMxMTE3IEdyYW5kIE1hcmFpcyBSZCBXLCBXaW5kc29yLCBPTiBOOUUgMUM4LCBDYW5hZGE",
         "types" : [ "street_address" ]
      }
   ],
   "status" : "OK"
}
