{
   "results" : [
      {
         "address_components" : [
            {
               "long_name" : "2667",
               "short_name" : "2667",
               "types" : [ "street_number" ]
            },
            {
               "long_name" : "Askin Avenue",
               "short_name" : "Askin Ave",
               "types" : [ "route" ]
            },
            {
               "long_name" : "South Windsor",
               "short_name" : "South Windsor",
               "types" : [ "neighborhood", "political" ]
            },
            {
               "long_name" : "Windsor",
               "short_name" : "Windsor",
               "types" : [ "locality", "political" ]
            },
            {
               "long_name" : "Essex County",
               "short_name" : "Essex County",
               "types" : [ "administrative_area_level_2", "political" ]
            },
            {
               "long_name" : "Ontario",
               "short_name" : "ON",
               "types" : [ "administrative_area_level_1", "political" ]
            },
            {
               "long_name" : "Canada",
               "short_name" : "CA",
               "types" : [ "country", "political" ]
            },
            {
               "long_name" : "N9E 3H8",
               "short_name" : "N9E 3H8",
               "types" : [ "postal_code" ]
            }
         ],
         "formatted_address" : "2667 Askin Ave, Windsor, ON N9E 3H8, Canada",
         "geometry" : {
            "bounds" : {
               "northeast" : {
                  "lat" : 42.2695979,
                  "lng" : -83.0397445
               },
               "southwest" : {
                  "lat" : 42.2694766,
                  "lng" : -83.0398848
               }
            },
            "location" : {
               "lat" : 42.2695373,
               "lng" : -83.0398146
            },
            "location_type" : "ROOFTOP",
            "viewport" : {
               "northeast" : {
                  "lat" : 42.2708862302915,
                  "lng" : -83.03846566970849
               },
               "southwest" : {
                  "lat" : 42.2681882697085,
                  "lng" : -83.04116363029149
               }
            }
         },
         "partial_match" : true,
         "place_id" : "ChIJccHZRdItO4gR9k0WxA9iF1U",
         "types" : [ "premise" ]
      }
   ],
   "status" : "OK"
}
