{
   "results" : [
      {
         "address_components" : [
            {
               "long_name" : "1337",
               "short_name" : "1337",
               "types" : [ "street_number" ]
            },
            {
               "long_name" : "Windermere Road",
               "short_name" : "Windermere Rd",
               "types" : [ "route" ]
            },
            {
               "long_name" : "Walkerville",
               "short_name" : "Walkerville",
               "types" : [ "neighborhood", "political" ]
            },
            {
               "long_name" : "Windsor",
               "short_name" : "Windsor",
               "types" : [ "locality", "political" ]
            },
            {
               "long_name" : "Essex County",
               "short_name" : "Essex County",
               "types" : [ "administrative_area_level_2", "political" ]
            },
            {
               "long_name" : "Ontario",
               "short_name" : "ON",
               "types" : [ "administrative_area_level_1", "political" ]
            },
            {
               "long_name" : "Canada",
               "short_name" : "CA",
               "types" : [ "country", "political" ]
            },
            {
               "long_name" : "N8Y 3G1",
               "short_name" : "N8Y 3G1",
               "types" : [ "postal_code" ]
            }
         ],
         "formatted_address" : "1337 Windermere Rd, Windsor, ON N8Y 3G1, Canada",
         "geometry" : {
            "bounds" : {
               "northeast" : {
                  "lat" : 42.3107215,
                  "lng" : -83.00782699999999
               },
               "southwest" : {
                  "lat" : 42.3106135,
                  "lng" : -83.0079861
               }
            },
            "location" : {
               "lat" : 42.3106675,
               "lng" : -83.0079066
            },
            "location_type" : "ROOFTOP",
            "viewport" : {
               "northeast" : {
                  "lat" : 42.3120164802915,
                  "lng" : -83.00655756970851
               },
               "southwest" : {
                  "lat" : 42.3093185197085,
                  "lng" : -83.00925553029151
               }
            }
         },
         "partial_match" : true,
         "place_id" : "ChIJ9R4FopEsO4gRAczvKR_tMPU",
         "types" : [ "premise" ]
      }
   ],
   "status" : "OK"
}
