{
   "results" : [
      {
         "address_components" : [
            {
               "long_name" : "1225",
               "short_name" : "1225",
               "types" : [ "street_number" ]
            },
            {
               "long_name" : "Parkview Avenue",
               "short_name" : "Parkview Ave",
               "types" : [ "route" ]
            },
            {
               "long_name" : "Riverside",
               "short_name" : "Riverside",
               "types" : [ "neighborhood", "political" ]
            },
            {
               "long_name" : "Windsor",
               "short_name" : "Windsor",
               "types" : [ "locality", "political" ]
            },
            {
               "long_name" : "Essex County",
               "short_name" : "Essex County",
               "types" : [ "administrative_area_level_2", "political" ]
            },
            {
               "long_name" : "Ontario",
               "short_name" : "ON",
               "types" : [ "administrative_area_level_1", "political" ]
            },
            {
               "long_name" : "Canada",
               "short_name" : "CA",
               "types" : [ "country", "political" ]
            },
            {
               "long_name" : "N8S 2X8",
               "short_name" : "N8S 2X8",
               "types" : [ "postal_code" ]
            }
         ],
         "formatted_address" : "1225 Parkview Ave, Windsor, ON N8S 2X8, Canada",
         "geometry" : {
            "bounds" : {
               "northeast" : {
                  "lat" : 42.3224087,
                  "lng" : -82.9499148
               },
               "southwest" : {
                  "lat" : 42.3222692,
                  "lng" : -82.9500784
               }
            },
            "location" : {
               "lat" : 42.322339,
               "lng" : -82.94999659999999
            },
            "location_type" : "ROOFTOP",
            "viewport" : {
               "northeast" : {
                  "lat" : 42.3236879302915,
                  "lng" : -82.9486476197085
               },
               "southwest" : {
                  "lat" : 42.3209899697085,
                  "lng" : -82.9513455802915
               }
            }
         },
         "partial_match" : true,
         "place_id" : "ChIJC1ECf9gqO4gRY7KH2a0us2k",
         "types" : [ "premise" ]
      }
   ],
   "status" : "OK"
}
