{
   "results" : [
      {
         "address_components" : [
            {
               "long_name" : "3060",
               "short_name" : "3060",
               "types" : [ "street_number" ]
            },
            {
               "long_name" : "Peace Court",
               "short_name" : "Peace Ct",
               "types" : [ "route" ]
            },
            {
               "long_name" : "Fontainbleu",
               "short_name" : "Fontainbleu",
               "types" : [ "neighborhood", "political" ]
            },
            {
               "long_name" : "Windsor",
               "short_name" : "Windsor",
               "types" : [ "locality", "political" ]
            },
            {
               "long_name" : "Essex County",
               "short_name" : "Essex County",
               "types" : [ "administrative_area_level_2", "political" ]
            },
            {
               "long_name" : "Ontario",
               "short_name" : "ON",
               "types" : [ "administrative_area_level_1", "political" ]
            },
            {
               "long_name" : "Canada",
               "short_name" : "CA",
               "types" : [ "country", "political" ]
            },
            {
               "long_name" : "N8T 2J4",
               "short_name" : "N8T 2J4",
               "types" : [ "postal_code" ]
            }
         ],
         "formatted_address" : "3060 Peace Ct, Windsor, ON N8T 2J4, Canada",
         "geometry" : {
            "bounds" : {
               "northeast" : {
                  "lat" : 42.2953058,
                  "lng" : -82.94848879999999
               },
               "southwest" : {
                  "lat" : 42.29513530000001,
                  "lng" : -82.9486745
               }
            },
            "location" : {
               "lat" : 42.29522050000001,
               "lng" : -82.94858169999999
            },
            "location_type" : "ROOFTOP",
            "viewport" : {
               "northeast" : {
                  "lat" : 42.29656953029151,
                  "lng" : -82.94723266970848
               },
               "southwest" : {
                  "lat" : 42.29387156970851,
                  "lng" : -82.94993063029149
               }
            }
         },
         "partial_match" : true,
         "place_id" : "ChIJRYQ4iv8qO4gRzOW_M70opO4",
         "types" : [ "premise" ]
      }
   ],
   "status" : "OK"
}
