{
   "results" : [
      {
         "address_components" : [
            {
               "long_name" : "1789",
               "short_name" : "1789",
               "types" : [ "street_number" ]
            },
            {
               "long_name" : "Olive Road",
               "short_name" : "Olive Rd",
               "types" : [ "route" ]
            },
            {
               "long_name" : "East Windsor",
               "short_name" : "East Windsor",
               "types" : [ "neighborhood", "political" ]
            },
            {
               "long_name" : "Windsor",
               "short_name" : "Windsor",
               "types" : [ "locality", "political" ]
            },
            {
               "long_name" : "Essex County",
               "short_name" : "Essex County",
               "types" : [ "administrative_area_level_2", "political" ]
            },
            {
               "long_name" : "Ontario",
               "short_name" : "ON",
               "types" : [ "administrative_area_level_1", "political" ]
            },
            {
               "long_name" : "Canada",
               "short_name" : "CA",
               "types" : [ "country", "political" ]
            },
            {
               "long_name" : "N8Y 4M9",
               "short_name" : "N8Y 4M9",
               "types" : [ "postal_code" ]
            }
         ],
         "formatted_address" : "1789 Olive Rd, Windsor, ON N8Y 4M9, Canada",
         "geometry" : {
            "bounds" : {
               "northeast" : {
                  "lat" : 42.31317960000001,
                  "lng" : -82.970788
               },
               "southwest" : {
                  "lat" : 42.3130812,
                  "lng" : -82.97092549999999
               }
            },
            "location" : {
               "lat" : 42.3131304,
               "lng" : -82.97085680000001
            },
            "location_type" : "ROOFTOP",
            "viewport" : {
               "northeast" : {
                  "lat" : 42.3144793802915,
                  "lng" : -82.9695077697085
               },
               "southwest" : {
                  "lat" : 42.3117814197085,
                  "lng" : -82.97220573029151
               }
            }
         },
         "partial_match" : true,
         "place_id" : "ChIJwd0d2xQrO4gRh958CKUm8N0",
         "types" : [ "premise" ]
      }
   ],
   "status" : "OK"
}
