{
   "results" : [
      {
         "address_components" : [
            {
               "long_name" : "3155",
               "short_name" : "3155",
               "types" : [ "street_number" ]
            },
            {
               "long_name" : "Randolph Avenue",
               "short_name" : "Randolph Ave",
               "types" : [ "route" ]
            },
            {
               "long_name" : "South Windsor",
               "short_name" : "South Windsor",
               "types" : [ "neighborhood", "political" ]
            },
            {
               "long_name" : "Windsor",
               "short_name" : "Windsor",
               "types" : [ "locality", "political" ]
            },
            {
               "long_name" : "Essex County",
               "short_name" : "Essex County",
               "types" : [ "administrative_area_level_2", "political" ]
            },
            {
               "long_name" : "Ontario",
               "short_name" : "ON",
               "types" : [ "administrative_area_level_1", "political" ]
            },
            {
               "long_name" : "Canada",
               "short_name" : "CA",
               "types" : [ "country", "political" ]
            },
            {
               "long_name" : "N9E 3E5",
               "short_name" : "N9E 3E5",
               "types" : [ "postal_code" ]
            }
         ],
         "formatted_address" : "3155 Randolph Ave, Windsor, ON N9E 3E5, Canada",
         "geometry" : {
            "bounds" : {
               "northeast" : {
                  "lat" : 42.2624122,
                  "lng" : -83.0327549
               },
               "southwest" : {
                  "lat" : 42.2622358,
                  "lng" : -83.03296499999999
               }
            },
            "location" : {
               "lat" : 42.262324,
               "lng" : -83.03286
            },
            "location_type" : "ROOFTOP",
            "viewport" : {
               "northeast" : {
                  "lat" : 42.2636729802915,
                  "lng" : -83.03151096970849
               },
               "southwest" : {
                  "lat" : 42.2609750197085,
                  "lng" : -83.0342089302915
               }
            }
         },
         "partial_match" : true,
         "place_id" : "ChIJu8pBXSosO4gRUSM1ivrCLQQ",
         "types" : [ "premise" ]
      }
   ],
   "status" : "OK"
}
