{
   "results" : [
      {
         "address_components" : [
            {
               "long_name" : "4269",
               "short_name" : "4269",
               "types" : [ "street_number" ]
            },
            {
               "long_name" : "Grand Marais Road East",
               "short_name" : "Grand Marais Rd E",
               "types" : [ "route" ]
            },
            {
               "long_name" : "Fontainbleu",
               "short_name" : "Fontainbleu",
               "types" : [ "neighborhood", "political" ]
            },
            {
               "long_name" : "Windsor",
               "short_name" : "Windsor",
               "types" : [ "locality", "political" ]
            },
            {
               "long_name" : "Essex County",
               "short_name" : "Essex County",
               "types" : [ "administrative_area_level_2", "political" ]
            },
            {
               "long_name" : "Ontario",
               "short_name" : "ON",
               "types" : [ "administrative_area_level_1", "political" ]
            },
            {
               "long_name" : "Canada",
               "short_name" : "CA",
               "types" : [ "country", "political" ]
            },
            {
               "long_name" : "N8W 1X2",
               "short_name" : "N8W 1X2",
               "types" : [ "postal_code" ]
            }
         ],
         "formatted_address" : "4269 Grand Marais Rd E, Windsor, ON N8W 1X2, Canada",
         "geometry" : {
            "bounds" : {
               "northeast" : {
                  "lat" : 42.2999021,
                  "lng" : -82.96839629999999
               },
               "southwest" : {
                  "lat" : 42.2998949,
                  "lng" : -82.9684123
               }
            },
            "location" : {
               "lat" : 42.2999021,
               "lng" : -82.9684123
            },
            "location_type" : "RANGE_INTERPOLATED",
            "viewport" : {
               "northeast" : {
                  "lat" : 42.3012474802915,
                  "lng" : -82.96705531970849
               },
               "southwest" : {
                  "lat" : 42.2985495197085,
                  "lng" : -82.9697532802915
               }
            }
         },
         "partial_match" : true,
         "place_id" : "EjM0MjY5IEdyYW5kIE1hcmFpcyBSZCBFLCBXaW5kc29yLCBPTiBOOFcgMVgyLCBDYW5hZGE",
         "types" : [ "street_address" ]
      },
      {
         "address_components" : [
            {
               "long_name" : "4269",
               "short_name" : "4269",
               "types" : [ "street_number" ]
            },
            {
               "long_name" : "Grand Marais Road West",
               "short_name" : "Grand Marais Rd W",
               "types" : [ "route" ]
            },
            {
               "long_name" : "South Windsor",
               "short_name" : "South Windsor",
               "types" : [ "neighborhood", "political" ]
            },
            {
               "long_name" : "Windsor",
               "short_name" : "Windsor",
               "types" : [ "locality", "political" ]
            },
            {
               "long_name" : "Essex County",
               "short_name" : "Essex County",
               "types" : [ "administrative_area_level_2", "political" ]
            },
            {
               "long_name" : "Ontario",
               "short_name" : "ON",
               "types" : [ "administrative_area_level_1", "political" ]
            },
            {
               "long_name" : "Canada",
               "short_name" : "CA",
               "types" : [ "country", "political" ]
            },
            {
               "long_name" : "N9E 1G4",
               "short_name" : "N9E 1G4",
               "types" : [ "postal_code" ]
            }
         ],
         "formatted_address" : "4269 Grand Marais Rd W, Windsor, ON N9E 1G4, Canada",
         "geometry" : {
            "bounds" : {
               "northeast" : {
                  "lat" : 42.2620701,
                  "lng" : -83.04147829999999
               },
               "southwest" : {
                  "lat" : 42.2620577,
                  "lng" : -83.0414868
               }
            },
            "location" : {
               "lat" : 42.2620701,
               "lng" : -83.0414868
            },
            "location_type" : "RANGE_INTERPOLATED",
            "viewport" : {
               "northeast" : {
                  "lat" : 42.2634128802915,
                  "lng" : -83.04013356970849
               },
               "southwest" : {
                  "lat" : 42.2607149197085,
                  "lng" : -83.04283153029151
               }
            }
         },
         "partial_match" : true,
         "place_id" : "EjM0MjY5IEdyYW5kIE1hcmFpcyBSZCBXLCBXaW5kc29yLCBPTiBOOUUgMUc0LCBDYW5hZGE",
         "types" : [ "street_address" ]
      }
   ],
   "status" : "OK"
}
