{
   "results" : [
      {
         "address_components" : [
            {
               "long_name" : "348",
               "short_name" : "348",
               "types" : [ "street_number" ]
            },
            {
               "long_name" : "Elm Avenue",
               "short_name" : "Elm Ave",
               "types" : [ "route" ]
            },
            {
               "long_name" : "University",
               "short_name" : "University",
               "types" : [ "neighborhood", "political" ]
            },
            {
               "long_name" : "Windsor",
               "short_name" : "Windsor",
               "types" : [ "locality", "political" ]
            },
            {
               "long_name" : "Essex County",
               "short_name" : "Essex County",
               "types" : [ "administrative_area_level_2", "political" ]
            },
            {
               "long_name" : "Ontario",
               "short_name" : "ON",
               "types" : [ "administrative_area_level_1", "political" ]
            },
            {
               "long_name" : "Canada",
               "short_name" : "CA",
               "types" : [ "country", "political" ]
            },
            {
               "long_name" : "N9A 5H1",
               "short_name" : "N9A 5H1",
               "types" : [ "postal_code" ]
            }
         ],
         "formatted_address" : "348 Elm Ave, Windsor, ON N9A 5H1, Canada",
         "geometry" : {
            "bounds" : {
               "northeast" : {
                  "lat" : 42.3132113,
                  "lng" : -83.05144369999999
               },
               "southwest" : {
                  "lat" : 42.3132055,
                  "lng" : -83.05146069999999
               }
            },
            "location" : {
               "lat" : 42.3132055,
               "lng" : -83.05146069999999
            },
            "location_type" : "RANGE_INTERPOLATED",
            "viewport" : {
               "northeast" : {
                  "lat" : 42.3145573802915,
                  "lng" : -83.05010321970848
               },
               "southwest" : {
                  "lat" : 42.3118594197085,
                  "lng" : -83.0528011802915
               }
            }
         },
         "partial_match" : true,
         "place_id" : "EigzNDggRWxtIEF2ZSwgV2luZHNvciwgT04gTjlBIDVIMSwgQ2FuYWRh",
         "types" : [ "street_address" ]
      },
      {
         "address_components" : [
            {
               "long_name" : "348",
               "short_name" : "348",
               "types" : [ "street_number" ]
            },
            {
               "long_name" : "Elm Grove Drive",
               "short_name" : "Elm Grove Dr",
               "types" : [ "route" ]
            },
            {
               "long_name" : "Windsor",
               "short_name" : "Windsor",
               "types" : [ "locality", "political" ]
            },
            {
               "long_name" : "Essex County",
               "short_name" : "Essex County",
               "types" : [ "administrative_area_level_2", "political" ]
            },
            {
               "long_name" : "Ontario",
               "short_name" : "ON",
               "types" : [ "administrative_area_level_1", "political" ]
            },
            {
               "long_name" : "Canada",
               "short_name" : "CA",
               "types" : [ "country", "political" ]
            },
            {
               "long_name" : "N8N 3S4",
               "short_name" : "N8N 3S4",
               "types" : [ "postal_code" ]
            }
         ],
         "formatted_address" : "348 Elm Grove Dr, Windsor, ON N8N 3S4, Canada",
         "geometry" : {
            "bounds" : {
               "northeast" : {
                  "lat" : 42.3165238,
                  "lng" : -82.8317112
               },
               "southwest" : {
                  "lat" : 42.3165106,
                  "lng" : -82.8317168
               }
            },
            "location" : {
               "lat" : 42.3165106,
               "lng" : -82.8317168
            },
            "location_type" : "RANGE_INTERPOLATED",
            "viewport" : {
               "northeast" : {
                  "lat" : 42.3178661802915,
                  "lng" : -82.83036501970849
               },
               "southwest" : {
                  "lat" : 42.3151682197085,
                  "lng" : -82.8330629802915
               }
            }
         },
         "partial_match" : true,
         "place_id" : "Ei0zNDggRWxtIEdyb3ZlIERyLCBXaW5kc29yLCBPTiBOOE4gM1M0LCBDYW5hZGE",
         "types" : [ "street_address" ]
      }
   ],
   "status" : "OK"
}
