{
   "results" : [
      {
         "address_components" : [
            {
               "long_name" : "1255",
               "short_name" : "1255",
               "types" : [ "street_number" ]
            },
            {
               "long_name" : "Devonshire Road",
               "short_name" : "Devonshire Rd",
               "types" : [ "route" ]
            },
            {
               "long_name" : "Walkerville",
               "short_name" : "Walkerville",
               "types" : [ "neighborhood", "political" ]
            },
            {
               "long_name" : "Windsor",
               "short_name" : "Windsor",
               "types" : [ "locality", "political" ]
            },
            {
               "long_name" : "Essex County",
               "short_name" : "Essex County",
               "types" : [ "administrative_area_level_2", "political" ]
            },
            {
               "long_name" : "Ontario",
               "short_name" : "ON",
               "types" : [ "administrative_area_level_1", "political" ]
            },
            {
               "long_name" : "Canada",
               "short_name" : "CA",
               "types" : [ "country", "political" ]
            },
            {
               "long_name" : "N8Y",
               "short_name" : "N8Y",
               "types" : [ "postal_code", "postal_code_prefix" ]
            }
         ],
         "formatted_address" : "1255 Devonshire Rd, Windsor, ON N8Y, Canada",
         "geometry" : {
            "bounds" : {
               "northeast" : {
                  "lat" : 42.3136874,
                  "lng" : -83.0060407
               },
               "southwest" : {
                  "lat" : 42.3136815,
                  "lng" : -83.0060577
               }
            },
            "location" : {
               "lat" : 42.3136874,
               "lng" : -83.0060407
            },
            "location_type" : "RANGE_INTERPOLATED",
            "viewport" : {
               "northeast" : {
                  "lat" : 42.31503343029151,
                  "lng" : -83.0047002197085
               },
               "southwest" : {
                  "lat" : 42.31233546970851,
                  "lng" : -83.0073981802915
               }
            }
         },
         "partial_match" : true,
         "place_id" : "EisxMjU1IERldm9uc2hpcmUgUmQsIFdpbmRzb3IsIE9OIE44WSwgQ2FuYWRh",
         "types" : [ "street_address" ]
      },
      {
         "address_components" : [
            {
               "long_name" : "1255",
               "short_name" : "1255",
               "types" : [ "street_number" ]
            },
            {
               "long_name" : "Devonshire Court",
               "short_name" : "Devonshire Ct",
               "types" : [ "route" ]
            },
            {
               "long_name" : "Walkerville",
               "short_name" : "Walkerville",
               "types" : [ "neighborhood", "political" ]
            },
            {
               "long_name" : "Windsor",
               "short_name" : "Windsor",
               "types" : [ "locality", "political" ]
            },
            {
               "long_name" : "Essex County",
               "short_name" : "Essex County",
               "types" : [ "administrative_area_level_2", "political" ]
            },
            {
               "long_name" : "Ontario",
               "short_name" : "ON",
               "types" : [ "administrative_area_level_1", "political" ]
            },
            {
               "long_name" : "Canada",
               "short_name" : "CA",
               "types" : [ "country", "political" ]
            },
            {
               "long_name" : "N8Y 1P8",
               "short_name" : "N8Y 1P8",
               "types" : [ "postal_code" ]
            }
         ],
         "formatted_address" : "1255 Devonshire Ct, Windsor, ON N8Y 1P8, Canada",
         "geometry" : {
            "bounds" : {
               "northeast" : {
                  "lat" : 42.3128783,
                  "lng" : -83.00678099999999
               },
               "southwest" : {
                  "lat" : 42.31286559999999,
                  "lng" : -83.0067888
               }
            },
            "location" : {
               "lat" : 42.3128783,
               "lng" : -83.0067888
            },
            "location_type" : "RANGE_INTERPOLATED",
            "viewport" : {
               "northeast" : {
                  "lat" : 42.3142209302915,
                  "lng" : -83.00543591970849
               },
               "southwest" : {
                  "lat" : 42.3115229697085,
                  "lng" : -83.0081338802915
               }
            }
         },
         "partial_match" : true,
         "place_id" : "Ei8xMjU1IERldm9uc2hpcmUgQ3QsIFdpbmRzb3IsIE9OIE44WSAxUDgsIENhbmFkYQ",
         "types" : [ "street_address" ]
      },
      {
         "address_components" : [
            {
               "long_name" : "1255",
               "short_name" : "1255",
               "types" : [ "street_number" ]
            },
            {
               "long_name" : "Devonshire Road",
               "short_name" : "Devonshire Rd",
               "types" : [ "route" ]
            },
            {
               "long_name" : "Grosse Pointe Park",
               "short_name" : "Grosse Pointe Park",
               "types" : [ "locality", "political" ]
            },
            {
               "long_name" : "Wayne County",
               "short_name" : "Wayne County",
               "types" : [ "administrative_area_level_2", "political" ]
            },
            {
               "long_name" : "Michigan",
               "short_name" : "MI",
               "types" : [ "administrative_area_level_1", "political" ]
            },
            {
               "long_name" : "United States",
               "short_name" : "US",
               "types" : [ "country", "political" ]
            },
            {
               "long_name" : "48230",
               "short_name" : "48230",
               "types" : [ "postal_code" ]
            },
            {
               "long_name" : "1155",
               "short_name" : "1155",
               "types" : [ "postal_code_suffix" ]
            }
         ],
         "formatted_address" : "1255 Devonshire Rd, Grosse Pointe Park, MI 48230, USA",
         "geometry" : {
            "bounds" : {
               "northeast" : {
                  "lat" : 42.38615950000001,
                  "lng" : -82.9320446
               },
               "southwest" : {
                  "lat" : 42.3861535,
                  "lng" : -82.9320615
               }
            },
            "location" : {
               "lat" : 42.38615950000001,
               "lng" : -82.9320446
            },
            "location_type" : "RANGE_INTERPOLATED",
            "viewport" : {
               "northeast" : {
                  "lat" : 42.3875054802915,
                  "lng" : -82.9307040697085
               },
               "southwest" : {
                  "lat" : 42.3848075197085,
                  "lng" : -82.93340203029152
               }
            }
         },
         "partial_match" : true,
         "place_id" : "EjUxMjU1IERldm9uc2hpcmUgUmQsIEdyb3NzZSBQb2ludGUgUGFyaywgTUkgNDgyMzAsIFVTQQ",
         "types" : [ "street_address" ]
      }
   ],
   "status" : "OK"
}
