{
   "results" : [
      {
         "address_components" : [
            {
               "long_name" : "3125",
               "short_name" : "3125",
               "types" : [ "street_number" ]
            },
            {
               "long_name" : "Girardot Street",
               "short_name" : "Girardot St",
               "types" : [ "route" ]
            },
            {
               "long_name" : "Sandwich",
               "short_name" : "Sandwich",
               "types" : [ "neighborhood", "political" ]
            },
            {
               "long_name" : "Windsor",
               "short_name" : "Windsor",
               "types" : [ "locality", "political" ]
            },
            {
               "long_name" : "Essex County",
               "short_name" : "Essex County",
               "types" : [ "administrative_area_level_2", "political" ]
            },
            {
               "long_name" : "Ontario",
               "short_name" : "ON",
               "types" : [ "administrative_area_level_1", "political" ]
            },
            {
               "long_name" : "Canada",
               "short_name" : "CA",
               "types" : [ "country", "political" ]
            },
            {
               "long_name" : "N9C",
               "short_name" : "N9C",
               "types" : [ "postal_code", "postal_code_prefix" ]
            }
         ],
         "formatted_address" : "3125 Girardot St, Windsor, ON N9C, Canada",
         "geometry" : {
            "bounds" : {
               "northeast" : {
                  "lat" : 42.2939674,
                  "lng" : -83.0649236
               },
               "southwest" : {
                  "lat" : 42.2939555,
                  "lng" : -83.06493309999999
               }
            },
            "location" : {
               "lat" : 42.2939674,
               "lng" : -83.06493309999999
            },
            "location_type" : "RANGE_INTERPOLATED",
            "viewport" : {
               "northeast" : {
                  "lat" : 42.29531043029149,
                  "lng" : -83.06357936970848
               },
               "southwest" : {
                  "lat" : 42.29261246970849,
                  "lng" : -83.0662773302915
               }
            }
         },
         "partial_match" : true,
         "place_id" : "EikzMTI1IEdpcmFyZG90IFN0LCBXaW5kc29yLCBPTiBOOUMsIENhbmFkYQ",
         "types" : [ "street_address" ]
      },
      {
         "address_components" : [
            {
               "long_name" : "3125",
               "short_name" : "3125",
               "types" : [ "street_number" ]
            },
            {
               "long_name" : "Girardot Avenue",
               "short_name" : "Girardot Ave",
               "types" : [ "route" ]
            },
            {
               "long_name" : "University",
               "short_name" : "University",
               "types" : [ "neighborhood", "political" ]
            },
            {
               "long_name" : "Windsor",
               "short_name" : "Windsor",
               "types" : [ "locality", "political" ]
            },
            {
               "long_name" : "Essex County",
               "short_name" : "Essex County",
               "types" : [ "administrative_area_level_2", "political" ]
            },
            {
               "long_name" : "Ontario",
               "short_name" : "ON",
               "types" : [ "administrative_area_level_1", "political" ]
            },
            {
               "long_name" : "Canada",
               "short_name" : "CA",
               "types" : [ "country", "political" ]
            },
            {
               "long_name" : "N9B",
               "short_name" : "N9B",
               "types" : [ "postal_code", "postal_code_prefix" ]
            }
         ],
         "formatted_address" : "3125 Girardot Ave, Windsor, ON N9B, Canada",
         "geometry" : {
            "bounds" : {
               "northeast" : {
                  "lat" : 42.2965557,
                  "lng" : -83.05764139999999
               },
               "southwest" : {
                  "lat" : 42.2965432,
                  "lng" : -83.0576495
               }
            },
            "location" : {
               "lat" : 42.2965557,
               "lng" : -83.0576495
            },
            "location_type" : "RANGE_INTERPOLATED",
            "viewport" : {
               "northeast" : {
                  "lat" : 42.2978984302915,
                  "lng" : -83.05629646970849
               },
               "southwest" : {
                  "lat" : 42.2952004697085,
                  "lng" : -83.05899443029149
               }
            }
         },
         "partial_match" : true,
         "place_id" : "EiozMTI1IEdpcmFyZG90IEF2ZSwgV2luZHNvciwgT04gTjlCLCBDYW5hZGE",
         "types" : [ "street_address" ]
      },
      {
         "address_components" : [
            {
               "long_name" : "3125",
               "short_name" : "3125",
               "types" : [ "street_number" ]
            },
            {
               "long_name" : "Girardot Avenue",
               "short_name" : "Girardot Ave",
               "types" : [ "route" ]
            },
            {
               "long_name" : "Sandwich",
               "short_name" : "Sandwich",
               "types" : [ "neighborhood", "political" ]
            },
            {
               "long_name" : "Windsor",
               "short_name" : "Windsor",
               "types" : [ "locality", "political" ]
            },
            {
               "long_name" : "Essex County",
               "short_name" : "Essex County",
               "types" : [ "administrative_area_level_2", "political" ]
            },
            {
               "long_name" : "Ontario",
               "short_name" : "ON",
               "types" : [ "administrative_area_level_1", "political" ]
            },
            {
               "long_name" : "Canada",
               "short_name" : "CA",
               "types" : [ "country", "political" ]
            },
            {
               "long_name" : "N9C 1W6",
               "short_name" : "N9C 1W6",
               "types" : [ "postal_code" ]
            }
         ],
         "formatted_address" : "3125 Girardot Ave, Windsor, ON N9C 1W6, Canada",
         "geometry" : {
            "bounds" : {
               "northeast" : {
                  "lat" : 42.2900675,
                  "lng" : -83.06979299999999
               },
               "southwest" : {
                  "lat" : 42.2900618,
                  "lng" : -83.0698101
               }
            },
            "location" : {
               "lat" : 42.2900675,
               "lng" : -83.0698101
            },
            "location_type" : "RANGE_INTERPOLATED",
            "viewport" : {
               "northeast" : {
                  "lat" : 42.2914136302915,
                  "lng" : -83.06845256970848
               },
               "southwest" : {
                  "lat" : 42.2887156697085,
                  "lng" : -83.07115053029149
               }
            }
         },
         "partial_match" : true,
         "place_id" : "Ei4zMTI1IEdpcmFyZG90IEF2ZSwgV2luZHNvciwgT04gTjlDIDFXNiwgQ2FuYWRh",
         "types" : [ "street_address" ]
      }
   ],
   "status" : "OK"
}
