{
   "results" : [
      {
         "address_components" : [
            {
               "long_name" : "1651",
               "short_name" : "1651",
               "types" : [ "street_number" ]
            },
            {
               "long_name" : "Rossini Boulevard",
               "short_name" : "Rossini Blvd",
               "types" : [ "route" ]
            },
            {
               "long_name" : "East Windsor",
               "short_name" : "East Windsor",
               "types" : [ "neighborhood", "political" ]
            },
            {
               "long_name" : "Windsor",
               "short_name" : "Windsor",
               "types" : [ "locality", "political" ]
            },
            {
               "long_name" : "Essex County",
               "short_name" : "Essex County",
               "types" : [ "administrative_area_level_2", "political" ]
            },
            {
               "long_name" : "Ontario",
               "short_name" : "ON",
               "types" : [ "administrative_area_level_1", "political" ]
            },
            {
               "long_name" : "Canada",
               "short_name" : "CA",
               "types" : [ "country", "political" ]
            },
            {
               "long_name" : "N8W 4P6",
               "short_name" : "N8W 4P6",
               "types" : [ "postal_code" ]
            }
         ],
         "formatted_address" : "1651 Rossini Blvd, Windsor, ON N8W 4P6, Canada",
         "geometry" : {
            "bounds" : {
               "northeast" : {
                  "lat" : 42.3076721,
                  "lng" : -82.9746275
               },
               "southwest" : {
                  "lat" : 42.3076663,
                  "lng" : -82.97464459999999
               }
            },
            "location" : {
               "lat" : 42.3076721,
               "lng" : -82.9746275
            },
            "location_type" : "RANGE_INTERPOLATED",
            "viewport" : {
               "northeast" : {
                  "lat" : 42.3090181802915,
                  "lng" : -82.97328706970848
               },
               "southwest" : {
                  "lat" : 42.3063202197085,
                  "lng" : -82.9759850302915
               }
            }
         },
         "partial_match" : true,
         "place_id" : "Ei4xNjUxIFJvc3NpbmkgQmx2ZCwgV2luZHNvciwgT04gTjhXIDRQNiwgQ2FuYWRh",
         "types" : [ "street_address" ]
      },
      {
         "address_components" : [
            {
               "long_name" : "1651",
               "short_name" : "1651",
               "types" : [ "street_number" ]
            },
            {
               "long_name" : "Rossini Boulevard",
               "short_name" : "Rossini Blvd",
               "types" : [ "route" ]
            },
            {
               "long_name" : "East Windsor",
               "short_name" : "East Windsor",
               "types" : [ "neighborhood", "political" ]
            },
            {
               "long_name" : "Windsor",
               "short_name" : "Windsor",
               "types" : [ "locality", "political" ]
            },
            {
               "long_name" : "Essex County",
               "short_name" : "Essex County",
               "types" : [ "administrative_area_level_2", "political" ]
            },
            {
               "long_name" : "Ontario",
               "short_name" : "ON",
               "types" : [ "administrative_area_level_1", "political" ]
            },
            {
               "long_name" : "Canada",
               "short_name" : "CA",
               "types" : [ "country", "political" ]
            },
            {
               "long_name" : "N8Y 3A2",
               "short_name" : "N8Y 3A2",
               "types" : [ "postal_code" ]
            }
         ],
         "formatted_address" : "1651 Rossini Blvd, Windsor, ON N8Y 3A2, Canada",
         "geometry" : {
            "bounds" : {
               "northeast" : {
                  "lat" : 42.3145489,
                  "lng" : -82.978961
               },
               "southwest" : {
                  "lat" : 42.3145427,
                  "lng" : -82.9789778
               }
            },
            "location" : {
               "lat" : 42.3145489,
               "lng" : -82.978961
            },
            "location_type" : "RANGE_INTERPOLATED",
            "viewport" : {
               "northeast" : {
                  "lat" : 42.31589478029149,
                  "lng" : -82.9776204197085
               },
               "southwest" : {
                  "lat" : 42.3131968197085,
                  "lng" : -82.98031838029151
               }
            }
         },
         "partial_match" : true,
         "place_id" : "Ei4xNjUxIFJvc3NpbmkgQmx2ZCwgV2luZHNvciwgT04gTjhZIDNBMiwgQ2FuYWRh",
         "types" : [ "street_address" ]
      }
   ],
   "status" : "OK"
}
