{
   "results" : [
      {
         "address_components" : [
            {
               "long_name" : "3623",
               "short_name" : "3623",
               "types" : [ "street_number" ]
            },
            {
               "long_name" : "Mulford Court",
               "short_name" : "Mulford Ct",
               "types" : [ "route" ]
            },
            {
               "long_name" : "Sandwich",
               "short_name" : "Sandwich",
               "types" : [ "neighborhood", "political" ]
            },
            {
               "long_name" : "Windsor",
               "short_name" : "Windsor",
               "types" : [ "locality", "political" ]
            },
            {
               "long_name" : "Essex County",
               "short_name" : "Essex County",
               "types" : [ "administrative_area_level_2", "political" ]
            },
            {
               "long_name" : "Ontario",
               "short_name" : "ON",
               "types" : [ "administrative_area_level_1", "political" ]
            },
            {
               "long_name" : "Canada",
               "short_name" : "CA",
               "types" : [ "country", "political" ]
            },
            {
               "long_name" : "N9C 1W8",
               "short_name" : "N9C 1W8",
               "types" : [ "postal_code" ]
            }
         ],
         "formatted_address" : "3623 Mulford Ct, Windsor, ON N9C 1W8, Canada",
         "geometry" : {
            "bounds" : {
               "northeast" : {
                  "lat" : 42.289489,
                  "lng" : -83.06869519999999
               },
               "southwest" : {
                  "lat" : 42.2894052,
                  "lng" : -83.06882229999999
               }
            },
            "location" : {
               "lat" : 42.2894471,
               "lng" : -83.0687588
            },
            "location_type" : "ROOFTOP",
            "viewport" : {
               "northeast" : {
                  "lat" : 42.2907960802915,
                  "lng" : -83.06740976970849
               },
               "southwest" : {
                  "lat" : 42.2880981197085,
                  "lng" : -83.0701077302915
               }
            }
         },
         "partial_match" : true,
         "place_id" : "ChIJsw3JJY4tO4gRSIrY7g8-Nf4",
         "types" : [ "premise" ]
      }
   ],
   "status" : "OK"
}
