{
   "results" : [
      {
         "address_components" : [
            {
               "long_name" : "594",
               "short_name" : "594",
               "types" : [ "street_number" ]
            },
            {
               "long_name" : "Erie Street East",
               "short_name" : "Erie St E",
               "types" : [ "route" ]
            },
            {
               "long_name" : "Walkerville",
               "short_name" : "Walkerville",
               "types" : [ "neighborhood", "political" ]
            },
            {
               "long_name" : "Windsor",
               "short_name" : "Windsor",
               "types" : [ "locality", "political" ]
            },
            {
               "long_name" : "Essex County",
               "short_name" : "Essex County",
               "types" : [ "administrative_area_level_2", "political" ]
            },
            {
               "long_name" : "Ontario",
               "short_name" : "ON",
               "types" : [ "administrative_area_level_1", "political" ]
            },
            {
               "long_name" : "Canada",
               "short_name" : "CA",
               "types" : [ "country", "political" ]
            },
            {
               "long_name" : "N9A 3X8",
               "short_name" : "N9A 3X8",
               "types" : [ "postal_code" ]
            }
         ],
         "formatted_address" : "594 Erie St E, Windsor, ON N9A 3X8, Canada",
         "geometry" : {
            "bounds" : {
               "northeast" : {
                  "lat" : 42.3121286,
                  "lng" : -83.02487169999999
               },
               "southwest" : {
                  "lat" : 42.3121161,
                  "lng" : -83.02487980000001
               }
            },
            "location" : {
               "lat" : 42.3121161,
               "lng" : -83.02487169999999
            },
            "location_type" : "RANGE_INTERPOLATED",
            "viewport" : {
               "northeast" : {
                  "lat" : 42.3134713302915,
                  "lng" : -83.0235267697085
               },
               "southwest" : {
                  "lat" : 42.3107733697085,
                  "lng" : -83.0262247302915
               }
            }
         },
         "partial_match" : true,
         "place_id" : "Eio1OTQgRXJpZSBTdCBFLCBXaW5kc29yLCBPTiBOOUEgM1g4LCBDYW5hZGE",
         "types" : [ "street_address" ]
      },
      {
         "address_components" : [
            {
               "long_name" : "594",
               "short_name" : "594",
               "types" : [ "street_number" ]
            },
            {
               "long_name" : "Erie Street West",
               "short_name" : "Erie St W",
               "types" : [ "route" ]
            },
            {
               "long_name" : "City Centre",
               "short_name" : "City Centre",
               "types" : [ "neighborhood", "political" ]
            },
            {
               "long_name" : "Windsor",
               "short_name" : "Windsor",
               "types" : [ "locality", "political" ]
            },
            {
               "long_name" : "Essex County",
               "short_name" : "Essex County",
               "types" : [ "administrative_area_level_2", "political" ]
            },
            {
               "long_name" : "Ontario",
               "short_name" : "ON",
               "types" : [ "administrative_area_level_1", "political" ]
            },
            {
               "long_name" : "Canada",
               "short_name" : "CA",
               "types" : [ "country", "political" ]
            },
            {
               "long_name" : "N9A 6C3",
               "short_name" : "N9A 6C3",
               "types" : [ "postal_code" ]
            }
         ],
         "formatted_address" : "594 Erie St W, Windsor, ON N9A 6C3, Canada",
         "geometry" : {
            "bounds" : {
               "northeast" : {
                  "lat" : 42.307092,
                  "lng" : -83.039079
               },
               "southwest" : {
                  "lat" : 42.3070795,
                  "lng" : -83.03908740000001
               }
            },
            "location" : {
               "lat" : 42.3070795,
               "lng" : -83.039079
            },
            "location_type" : "RANGE_INTERPOLATED",
            "viewport" : {
               "northeast" : {
                  "lat" : 42.30843473029149,
                  "lng" : -83.0377342197085
               },
               "southwest" : {
                  "lat" : 42.3057367697085,
                  "lng" : -83.04043218029152
               }
            }
         },
         "partial_match" : true,
         "place_id" : "Eio1OTQgRXJpZSBTdCBXLCBXaW5kc29yLCBPTiBOOUEgNkMzLCBDYW5hZGE",
         "types" : [ "street_address" ]
      }
   ],
   "status" : "OK"
}
