{
   "results" : [
      {
         "address_components" : [
            {
               "long_name" : "1154",
               "short_name" : "1154",
               "types" : [ "street_number" ]
            },
            {
               "long_name" : "Albert Road",
               "short_name" : "Albert Rd",
               "types" : [ "route" ]
            },
            {
               "long_name" : "East Windsor",
               "short_name" : "East Windsor",
               "types" : [ "neighborhood", "political" ]
            },
            {
               "long_name" : "Windsor",
               "short_name" : "Windsor",
               "types" : [ "locality", "political" ]
            },
            {
               "long_name" : "Essex County",
               "short_name" : "Essex County",
               "types" : [ "administrative_area_level_2", "political" ]
            },
            {
               "long_name" : "Ontario",
               "short_name" : "ON",
               "types" : [ "administrative_area_level_1", "political" ]
            },
            {
               "long_name" : "Canada",
               "short_name" : "CA",
               "types" : [ "country", "political" ]
            },
            {
               "long_name" : "N8Y 3P6",
               "short_name" : "N8Y 3P6",
               "types" : [ "postal_code" ]
            }
         ],
         "formatted_address" : "1154 Albert Rd, Windsor, ON N8Y 3P6, Canada",
         "geometry" : {
            "bounds" : {
               "northeast" : {
                  "lat" : 42.3185891,
                  "lng" : -82.9999689
               },
               "southwest" : {
                  "lat" : 42.3184493,
                  "lng" : -83.000236
               }
            },
            "location" : {
               "lat" : 42.3185192,
               "lng" : -83.0001025
            },
            "location_type" : "ROOFTOP",
            "viewport" : {
               "northeast" : {
                  "lat" : 42.3198681802915,
                  "lng" : -82.99875346970849
               },
               "southwest" : {
                  "lat" : 42.3171702197085,
                  "lng" : -83.00145143029151
               }
            }
         },
         "partial_match" : true,
         "place_id" : "ChIJaeyObaIsO4gRwVoy6wuXefA",
         "types" : [ "premise" ]
      }
   ],
   "status" : "OK"
}
